{
	"city": "New York",
	"days": [
		{
			"date": "2013-10-27",
			"venues": [
				{
					"name": "Izumi",
					"location": {
						"lat": 40.728162904651136,
                    	"lng": -73.98801601305168
	                },
	                "timeCode": 0,
	                "address": "",
	                "imageUrl": "https://irs1.4sqi.net/img/general/original/16155_r7MDKXL1q6jMP_0cXl2r-saSFVLS_yKWR8R1AggPEPM.jpg",
	                "blurb": "Loved the sushi here!"
				},{
					"name": "Kabuki Sushi",
					"location": {
						"lat": 40.689644,
                    	"lng": -73.971364
	                },
	                "timeCode": 1,
	                "address": "",
	                "imageUrl": "https://irs1.4sqi.net/img/general/original/16155_r7MDKXL1q6jMP_0cXl2r-saSFVLS_yKWR8R1AggPEPM.jpg",
	                "blurb": "I keep coming back, it was amazing!"
				},{
					"name": "Sagano",
					"location": {
						"lat": 40.697673182111075,
	                    "lng": -73.99341344833374
	                },
	                "timeCode": 2,
	                "address": "",
	                "imageUrl": "https://irs1.4sqi.net/img/general/original/16155_r7MDKXL1q6jMP_0cXl2r-saSFVLS_yKWR8R1AggPEPM.jpg",
	                "blurb": "Would recommend it to anyone looking for serious Japanese Cuisine in the Big Apple"
				},{
					"name": "Kuchi",
					"location": {
						"lat": 40.730595,
	                    "lng": -73.98302
	                },
	                "timeCode": 3,
	                "address": "",
	                "imageUrl": "https://irs1.4sqi.net/img/general/original/16155_r7MDKXL1q6jMP_0cXl2r-saSFVLS_yKWR8R1AggPEPM.jpg",
	                "blurb": "Lorem ipsum dolor sit amet, consetetur sadipscing elitr, sed diam no..."
				}
			]
		},{
			"date": "2013-10-28",
			"venues": [
				{
					"name": "Sasayo",
					"location": {
						"lat": 40.728162904651136,
    	                "lng": -73.98801601305168
	                },
	                "timeCode": 0,
	                "address": "",
	                "imageUrl": "https://irs1.4sqi.net/img/general/original/16155_r7MDKXL1q6jMP_0cXl2r-saSFVLS_yKWR8R1AggPEPM.jpg",
	                "blurb": "Lorem ipsum dolor sit amet, consetetur sadipscing elitr,t ut labore et dolore magna aliquyam erat..."
				},{
					"name": "Edo Sushi",
					"location": {
						"lat": 40.731673368956436,
                    	"lng": -74.00453787112845
	                },
	                "timeCode": 1,
	                "address": "",
	                "imageUrl": "https://irs1.4sqi.net/img/general/original/16155_r7MDKXL1q6jMP_0cXl2r-saSFVLS_yKWR8R1AggPEPM.jpg",
	                "blurb": "Lorem ipsum dolor sit amet, consetetur sadipscing eliut labore et dolore magna aliquyam erat..."
				},{
					"name": "Goko",
					"location": {
						"lat": 40.697673182111075,
                    	"lng": -73.99341344833374
	                },
	                "timeCode": 3,
	                "address": "",
	                "imageUrl": "https://irs1.4sqi.net/img/general/original/16155_r7MDKXL1q6jMP_0cXl2r-saSFVLS_yKWR8R1AggPEPM.jpg",
	                "blurb": "Lorem ipsum dolor sit amet, consetetur sadipscing elie et dolore magna aliquyam erat..."
				}
			]
		}
	]
}